[
  {
    "lat": 40.01629,
    "lng": 116.314607,
    "title": "圆明园",
    "text": "2014年12月25日，跟高中同学一起来的圆明园。今天北京天气不错，难得雾都能碰到这种天气，于是啪啪啪拍了不少照片。自从辞职后一直要说出远门来着，结果一直忙着各种事情，今天总算放松下了~",
    "img": "images/2014/2014122601/back2.jpg"
  },
  {
    "lat": 40.019374,
    "lng": 116.319269,
    "title": "圆明园",
    "text": "遥想当年，一把火，残垣断壁，我们无力改变历史。还看今朝，一把火，燃烧激情，愿青春过去依然屹立。",
    "img": "images/2014/2014122601/back3.jpg"
  },
  {
    "lat": 39.911356,
    "lng": 116.407926,
    "title": "国家博物馆",
    "text": "2014年12月26日，早上出门独自溜达，从天安门西侧一路向东走去。起初是想走到国家博物馆，后发现路途异常艰难，三步一小查，五步一大查，整个路上各种检查，略感无奈。最终花了将近一上午终于走到博物馆与老姐会师。然后下午就一起看展览了。下图为罗丹的雕塑展一角-亚当和夏娃",
    "img": "images/2014/2014122601/back4.jpg"
  },
  {
    "lat": 40.002854,
    "lng": 116.342164,
    "title": "巴依老爷(清华东门)",
    "text": "2014年12月27日，跟北京集训队的一些同学约了顿饭。在北京生活不容易呀，感觉同学沧桑了不少。后来那天去了798,可以没有拍照。巴依老爷的这个酸奶还不错～～",
    "img": "images/2014/2014122601/back5.jpg"
  },
  {
    "lat": 32.003948,
    "lng": 118.774106,
    "title": "仙乐咖啡",
    "text": "2014年12月31日，室友回家了就剩我一人，只好独自来到这家咖啡馆，点了点小吃，开启电脑写代码来度过这慢慢长夜。又一年了，2014年经历了太多变故，一句话诉说不清，要非得概括下的话，那就是：痛，并快乐着。",
    "img": "images/2014/2014122601/back6.jpg"
  },
  {
    "lat": 32.054103,
    "lng": 118.874682,
    "title": "钟山风景区",
    "text": "天气好的时候，可以来这片草坪晒晒太阳。",
    "img": "#"
  },
  {
    "lat": 32.047394,
    "lng": 118.832047,
    "title": "南京市博物馆",
    "text": "2014年7月6日，这里的民国馆别有一番风味呀。还被阿姨塞了“老鼠屎”吃。",
    "img": "#"
  },
  {
    "lat": 32.012861,
    "lng": 118.712026,
    "title": "棉花堤渡口",
    "text": "2014年6月29日，有公交价的船可以坐哦，坐过去对面就是江心洲啦，适合散步。",
    "img": "#"
  },
  {
    "lat": 32.036177,
    "lng": 118.86238,
    "title": "南理工二月兰",
    "text": "2014年3月15日，今天打假诶，那你猜这株二月兰是真的嘛？",
    "img": "#"
  },
  {
    "lat": 31.321311,
    "lng": 120.610308,
    "title": "姑苏区阊胥路813号",
    "text": "2014年2月22日，是个很2的日子哈，现在环游苏州姑苏区的船上～",
    "img": "#"
  },
  {
    "lat": 34.251541,
    "lng": 117.167581,
    "title": "滨湖公园",
    "text": "2014年2月8日，滨湖公园也是个散步的好去处，边上就是传说中的云龙湖，有次听管理员说西湖人都会过来考察呢。",
    "img": "#"
  },
  {
    "lat": 32.134222,
    "lng": 118.795545,
    "title": "幕府山",
    "text": "2013年12月14日，山上走到中间有处断崖，感觉是被轰开的，站在那可以远眺到七里洲，感觉适合在那摆个桌子喝茶吹风啊- -。",
    "img": "#"
  },
  {
    "lat": 32.013211,
    "lng": 118.793429,
    "title": "1865心之旅花园客栈",
    "text": "2013年12月4日，流年似水，1865创意园对于我来说有些特别的记忆。这家青旅还不错，可惜只是路过～",
    "img": "#"
  },
  {
    "lat": 32.093352,
    "lng": 118.740352,
    "title": "中山码头",
    "text": "2013年10月27日，坐船过了江就是南京北站，一个老火车站了，那边还有火车经过哦～然后趁没车的时候就伴着夕阳压铁轨吧",
    "img": "#"
  },
  {
    "lat": 32.152548,
    "lng": 118.821623,
    "title": "南京暮燕滨江风貌区",
    "text": "2013年10月3日，跟小伙伴一起来的，他在江边写下了这个字，现在估计已经被江水冲刷掉了吧，时间就是那么无情，那位小伙伴也远在上海了，随着字冲到下游去了么...",
    "img": "#"
  }
]
